{
  "type": "FeatureCollection",
  "features": [
    {
      "type": "Daycare",
      "geometry": {
        "type": "Point",
        "coordinates": [
          -122.337640,
          47.605060
        ]
      },
      "properties": {
        "id": "1",
        "name": "KidsCentre",
        "streetAddress": "99 Spring St",
        "city": "Seattle",
        "state": "WA",
        "zipCode": "98104",
        "img": "https://static.wixstatic.com/media/f17029_43a46ebbd3dd4edd8860cb064faa7228~mv2_d_2220_3336_s_2.jpg/v1/fill/w_716,h_399,al_c,q_80,usm_0.66_1.00_0.01/f17029_43a46ebbd3dd4edd8860cb064faa7228~mv2_d_2220_3336_s_2.webp",
        "phoneNumber": "206-623-5437",
        "day": true,
        "evening": true,
        "infant": true,
        "toddler": true,
        "child": true,
        "olderChild": false,
        "snacks": true,
        "covidPlan": true,
        "price": "$"
      }
    },
    {
      "type": "Daycare",
      "geometry": {
        "type": "Point",
        "coordinates": [
          -122.679780,
          45.513670
        ]
      },
      "properties": {
        "id": "2",
        "name": "Downtown Portland KinderCare",
        "streetAddress": "1400 SW 5th Ave Ste 100",
        "city": "Portland",
        "state": "OR",
        "zipCode": "97201",
        "img": "https://www.koin.com/wp-content/uploads/sites/10/2019/07/KinderCare-C-07252019.png?w=1280",
        "phoneNumber": "800-709-8814",
        "day": true,
        "evening": true,
        "infant": true,
        "toddler": true,
        "child": true,
        "olderChild": true,
        "snacks": true,
        "covidPlan": true,
        "price": "$"
      }
    },
    {
      "type": "Daycare",
      "geometry": {
        "type": "Point",
        "coordinates": [
          -122.679780,
          45.531930
        ]
      },
      "properties": {
        "id": "3",
        "name": "Primrose School of Silicon Forest",
        "streetAddress": "7296 NE Imbrie Drive",
        "city": "Portland",
        "state": "OR",
        "zipCode": "97124",
        "img": "https://ucarecdn.com/e5bfc65c-ecd9-45cb-b983-f315a7d46ebe/-/crop/3200x739/0,13/-/resize/2048x470/",
        "phoneNumber": "971-206-6030",
        "day": true,
        "evening": true,
        "infant": true,
        "toddler": true,
        "child": true,
        "olderChild": true,
        "snacks": true,
        "covidPlan": true,
        "price": "$$"
      }
    },
    {
      "type": "Daycare",
      "geometry": {
        "type": "Point",
        "coordinates": [
          -88.124336,
          30.703831
        ]
      },
      "properties": {
        "id": "4",
        "name": "Carmenâ€™s Child Care & Learning Center",
        "streetAddress": "1361 Springhill Avenue",
        "city": "Mobile",
        "state": "AL",
        "zipCode": "36604",
        "img": "https://i4.ypcdn.com/blob/a017d178c919d8268cf0fe7cc2299410a28b270f_400x260_crop.jpg",
        "phoneNumber": "251-432-9050",
        "day": true,
        "evening": true,
        "infant": true,
        "toddler": true,
        "child": true,
        "olderChild": true,
        "snacks": true,
        "covidPlan": false,
        "price": "$"
      }
    },
    {
      "type": "Daycare",
      "geometry": {
        "type": "Point",
        "coordinates": [
          -122.375839,
          47.555149
        ]
      },
      "properties": {
        "id": "5",
        "name": "Marji's House",
        "streetAddress": "5214 35th Ave SW",
        "city": "Seattle",
        "state": "WA",
        "zipCode": "98126",
        "img": "https://s.hdnux.com/photos/01/15/45/15/20337494/5/rawImage.jpg",
        "phoneNumber": "206-898-0293",
        "day": true,
        "evening": false,
        "infant": true,
        "toddler": true,
        "child": true,
        "olderChild": false,
        "snacks": true,
        "covidPlan": false,
        "price": "$"
      }
    },
    {
      "type": "Daycare",
      "geometry": {
        "type": "Point",
        "coordinates": [
          -122.653150,
          45.468830
        ]
      },
      "properties": {
        "id": "6",
        "name": "Cadence Academy Preschool",
        "streetAddress": "7733 Southeast 13th Avenue",
        "city": "Portland",
        "state": "OR",
        "zipCode": "97202",
        "img": "https://www.cadence-education.com/wp-content/uploads/2020/09/2-year-old_girl_playing_with_eye_dropper_cadence_academy_preschool_sellwood_portland_or-338x450-1.jpg",
        "phoneNumber": "503-236-8009",
        "day": true,
        "evening": true,
        "infant": true,
        "toddler": true,
        "child": true,
        "olderChild": true,
        "snacks": true,
        "covidPlan": true,
        "price": "$$$"
      }
    },
    {
      "type": "Daycare",
      "geometry": {
        "type": "Point",
        "coordinates": [
          -88.196320,
          30.670630
        ]
      },
      "properties": {
        "id": "7",
        "name": "Jubilee Child Care Center & Preschool",
        "streetAddress": "6631 Wall Street",
        "city": "Mobile",
        "state": "AL",
        "zipCode": "36695",
        "img": "https://www.jubileechildcare.com/wp-content/uploads/2017/03/Jubilee-Website-Pics-2-105.jpg",
        "phoneNumber": "251-776-7022",
        "day": true,
        "evening": true,
        "infant": true,
        "toddler": true,
        "child": false,
        "olderChild": true,
        "snacks": true,
        "covidPlan": false,
        "price": "$$$"
      }
    },
    {
      "type": "Daycare",
      "geometry": {
        "type": "Point",
        "coordinates": [
          -88.190180,
          30.685370
        ]
      },
      "properties": {
        "id": "8",
        "name": "Weinacker's Montessori School",
        "streetAddress": "227 Hillcrest Road",
        "city": "Mobile",
        "state": "AL",
        "zipCode": "36608",
        "img": "https://www.weinackersmontessori.com/wp-content/uploads/2019/09/Preschool-Circle-Time.png",
        "phoneNumber": "251-344-8755",
        "day": true,
        "evening": true,
        "infant": true,
        "toddler": true,
        "child": true,
        "olderChild": false,
        "snacks": true,
        "covidPlan": true,
        "price": "$$$"
      }
    },
    {
      "type": "Daycare",
      "geometry": {
        "type": "Point",
        "coordinates": [
          -122.332080,
          47.608960
        ]
      },
      "properties": {
        "id": "9",
        "name": "Green Tree Early Childhood Center",
        "streetAddress": "1200 6th Avenue, Suite 200",
        "city": "Seattle",
        "state": "WA",
        "zipCode": "98101",
        "img": "https://greentreechildcare.com/wp-content/uploads/2017/11/today-022.jpg",
        "phoneNumber": "206-553-8212",
        "day": true,
        "evening": true,
        "infant": true,
        "toddler": true,
        "child": false,
        "olderChild": false,
        "snacks": true,
        "covidPlan": true,
        "price": "$$$"
      }
    }
  ]
}
